[{"id":"1","street_name":"Almog\u00e0vers-\u00c0vila","city":"BARCELONA","utm_x":"432542,5460","utm_y":"4583524,2340","lat":"41.3985182","lon":"2.1917991","furniture":"Pal","buses":"06 - 40 - 42 - 141 - B25 - N11","distance":"0"},{"id":"2721","street_name":"\u00c0vila-Almog\u00e0vers","city":"BARCELONA","utm_x":"432641,0420","utm_y":"4583509,2710","lat":"41.3985182","lon":"2.1917991","furniture":"Pal","buses":"92","distance":"0"},{"id":"1109","street_name":"Pallars-Pere IV","city":"BARCELONA","utm_x":"432649,3090","utm_y":"4583419,6730","lat":"41.3977031","lon":"2.1932360","furniture":"Marquesina","buses":"06 - 40 - 42 - 141 - B25 - N11","distance":"0.09336568481229553"},{"id":"2464","street_name":"Badajoz-Almog\u00e0vers","city":"BARCELONA","utm_x":"432667,0080","utm_y":"4583727,3230","lat":"41.4004725","lon":"2.1931803","furniture":"Marquesina","buses":"92 - 192","distance":"0.1528234479551465"},{"id":"2461","street_name":"\u00c0vila-T\u00e0nger","city":"BARCELONA","utm_x":"432467,5120","utm_y":"4583692,9270","lat":"41.40092","lon":"2.19046","furniture":"Pal","buses":"92","distance":"0.17986794923677887"},{"id":"2834","street_name":"Almog\u00e0vers-Joan d'Austria","city":"BARCELONA","utm_x":"432268,8763","utm_y":"4583258,0248","lat":"41.3961818","lon":"2.1886462","furniture":"Pal","buses":"06 - 40 - 42 - 141 - B25 - N11","distance":"0.22969245994569196"},{"id":"3027","street_name":"Comissaria Mossos d'Esquadra","city":"BARCELONA","utm_x":"432494,3430","utm_y":"4588588,0380","lat":"41.4012787","lon":"2.1890540","furniture":"Marquesina","buses":"B16 - B19 - B20","distance":"0.23793848211436405"},{"id":"2730","street_name":"\u00c0vila-Pujades","city":"BARCELONA","utm_x":"432859,5000","utm_y":"4583302,5000","lat":"41.3966774","lon":"2.1957143","furniture":"Pal","buses":"92","distance":"0.23947616062742244"},{"id":"1125","street_name":"Ciutat de Granada-Pallars","city":"BARCELONA","utm_x":"432912,1270","utm_y":"4583636,0060","lat":"41.3996314","lon":"2.1963790","furniture":"Pal","buses":"06 - 141 - N8","distance":"0.24950727187805266"},{"id":"31","street_name":"Llull-\u00c0laba","city":"BARCELONA","utm_x":"432842,3920","utm_y":"4583237,1550","lat":"41.3960621","lon":"2.1955527","furniture":"Pal","buses":"71","distance":"0.2581488245461092"},{"id":"300","street_name":"Pujades-Ciutat de Granada","city":"BARCELONA","utm_x":"432949,5070","utm_y":"4583542,6140","lat":"41.3988221","lon":"2.1968001","furniture":"Pal","buses":"71 - 192","distance":"0.2600320701297939"},{"id":"829","street_name":"Pere IV-Roc Boronat","city":"BARCELONA","utm_x":"432892,5898","utm_y":"4583750,4852","lat":"41.4006896","lon":"2.1960962","furniture":"Pal","buses":"40 - 42 - B25 - N11","distance":"0.2685173987166806"},{"id":"543","street_name":"Almog\u00e0vers - Ciutat de Granada","city":"BARCELONA","utm_x":"432857,3131","utm_y":"4583827,2095","lat":"41.4012817","lon":"2.1955160","furniture":"Pal","buses":"06 - 40 - 42 - 141 - B25 - N11","distance":"0.27122018992818453"},{"id":"2723","street_name":"Badajoz-Llull","city":"BARCELONA","utm_x":"432951,1330","utm_y":"4583438,3620","lat":"41.3976403","lon":"2.1969078","furniture":"Pal","buses":"92","distance":"0.2716257203241516"},{"id":"105823","street_name":"Padilla - Av. Meridiana","city":"BARCELONA","utm_x":"432067,8840","utm_y":"4583571,3380","lat":"41.3990067","lon":"2.1862513","furniture":"Pal","buses":"N7","distance":"0.28949528582795353"},{"id":"2729","street_name":"Badajoz-Av Diagonal","city":"BARCELONA","utm_x":"432300,7880","utm_y":"4584056,9560","lat":"41.3973355","lon":"2.1971935","furniture":"Pal","buses":"92","distance":"0.29127126512890383"},{"id":"2463","street_name":"Ciutat de Granada-T\u00e0nger","city":"BARCELONA","utm_x":"432599,8030","utm_y":"4583991,9060","lat":"41.4028464","lon":"2.1923774","furniture":"Pal","buses":"92 - 192","distance":"0.3005334376755428"},{"id":"106157","street_name":"Av. Meridiana - Marina","city":"BARCELONA","utm_x":"432110,7990","utm_y":"4583208,9210","lat":"41.3957462","lon":"2.1868054","furniture":"Pal","buses":"N0","distance":"0.3219657949914973"},{"id":"106158","street_name":"Av. Meridiana - Marina","city":"BARCELONA","utm_x":"432135,7250","utm_y":"4583233,0420","lat":"41.3957462","lon":"2.1868054","furniture":"Marquesina","buses":"N0","distance":"0.3219657949914973"},{"id":"105831","street_name":"Castillejos - Av. Meridiana","city":"BARCELONA","utm_x":"432062,3881","utm_y":"4583740,0310","lat":"41.40052559999999","lon":"2.1861665999999786","furniture":"Pal","buses":"N7","distance":"0.32317985824102596"},{"id":"697","street_name":"Pallars-Marina","city":"BARCELONA","utm_x":"432295,2080","utm_y":"4583084,0130","lat":"41.3944065","lon":"2.1887053","furniture":"Pal","buses":"06 - 40 - 42 - 141 - B25 - N11","distance":"0.3262063840930116"},{"id":"1662","street_name":"Roc Boronat-Pallars","city":"BARCELONA","utm_x":"433027,4050","utm_y":"4583721,0500","lat":"41.4004358","lon":"2.1977121","furniture":"Pal","buses":"141 - N8","distance":"0.3338580006583055"},{"id":"27","street_name":"Pont de Marina-Av Meridiana","city":"BARCELONA","utm_x":"432074,0480","utm_y":"4583169,1860","lat":"41.3954121","lon":"2.1863350","furniture":"Pal","buses":"06 - 10","distance":"0.355317575541044"},{"id":"32","street_name":"Pl de les Gl\u00f2ries","city":"BARCELONA","utm_x":"432140,5000","utm_y":"4583930,5000","lat":"41.4028956","lon":"2.1877830","furniture":"Pal","buses":"N0 - N7","distance":"0.3671320390381398"},{"id":"3049","street_name":"Pl de les Gl\u00f2ries Catalanes-Av Diagonal","city":"BARCELONA","utm_x":"432210,5000","utm_y":"4584007,5000","lat":"41.4028956","lon":"2.1877830","furniture":"","buses":"07 - 56 - 92 - B21","distance":"0.3671320390381398"},{"id":"36","street_name":"Pont de Marina-Almog\u00e0vers","city":"BARCELONA","utm_x":"432061,0320","utm_y":"4583153,4310","lat":"41.3952422","lon":"2.1862163","furniture":"Pal","buses":"06 - 10","distance":"0.36735393492697427"},{"id":"830","street_name":"Llull-Ciutat de Granada","city":"BARCELONA","utm_x":"433128,6410","utm_y":"4583508,1330","lat":"41.3985265","lon":"2.1989466","furniture":"Marquesina","buses":"26 - 71 - 141","distance":"0.37042929498234783"},{"id":"1126","street_name":"Roc Boronat-Llull","city":"BARCELONA","utm_x":"433112,7760","utm_y":"4583628,3757","lat":"41.3995872","lon":"2.1988728","furniture":"Marquesina","buses":"06 - N8","distance":"0.3739668919558363"},{"id":"2334","street_name":"Ausias Marc-Marina","city":"BARCELONA","utm_x":"431910,1710","utm_y":"4583469,4270","lat":"41.3980275","lon":"2.1844296","furniture":"Marquesina","buses":"10","distance":"0.3834374832292445"},{"id":"499","street_name":"Pl de les Gl\u00f2ries Catalanes","city":"BARCELONA","utm_x":"431980,1850","utm_y":"4583888,0050","lat":"41.4032180","lon":"2.1876658","furniture":"Marquesina","buses":"07 - 56 - B21 - N2","distance":"0.38899912317518315"},{"id":"3190","street_name":"Pujades-Roc Boronat","city":"BARCELONA","utm_x":"433122,7579","utm_y":"4583713,6168","lat":"41.4003972","lon":"2.1988899","furniture":"Marquesina","buses":"36 - 71 - 192 - N6","distance":"0.38974157415338384"},{"id":"1879","street_name":"Av Diagonal-Ciutat de Granada","city":"BARCELONA","utm_x":"432493,3091","utm_y":"4584142,7674","lat":"41.4042307","lon":"2.1912949","furniture":"Pal","buses":"07 - N7","distance":"0.3955406406912712"},{"id":"1629","street_name":"Pamplona-Av Bogatell","city":"BARCELONA","utm_x":"432852,4860","utm_y":"4582946,0410","lat":"41.3934409","lon":"2.1957058","furniture":"Pal","buses":"71","distance":"0.40503258796540265"},{"id":"1074","street_name":"Ctra de Ribes-Lepant","city":"BARCELONA","utm_x":"431885,9670","utm_y":"4583627,2770","lat":"41.3994952","lon":"2.1840690","furniture":"Pal","buses":"62 - N3","distance":"0.4062667601059181"},{"id":"2732","street_name":"Av Diagonal-Pl de les Gl\u00f2ries Catalanes","city":"BARCELONA","utm_x":"432325,3030","utm_y":"4584144,1630","lat":"41.4041404","lon":"2.1893657","furniture":"Pal","buses":"92 - 192","distance":"0.4083960741778692"},{"id":"1134","street_name":"Marina-Av Bogatell","city":"BARCELONA","utm_x":"432361,4497","utm_y":"4582869,9974","lat":"41.3927666","lon":"2.1898526","furniture":"Marquesina","buses":"10 - N0","distance":"0.4099841283780591"},{"id":"950","street_name":"Almog\u00e0vers-Marina","city":"BARCELONA","utm_x":"432057,4010","utm_y":"4583050,8900","lat":"41.3943204","lon":"2.1861783","furniture":"Marquesina","buses":"40 - 42 - 141 - B25 - N11","distance":"0.41107116129266424"},{"id":"802","street_name":"Marina-Pujades","city":"BARCELONA","utm_x":"432317,4251","utm_y":"4582886,4948","lat":"41.3926954","lon":"2.1895684","furniture":"Marquesina","buses":"10 - N0","distance":"0.4185806121804803"},{"id":"1880","street_name":"Av Diagonal-Roc Boronat","city":"BARCELONA","utm_x":"432492,3768","utm_y":"4584187,0036","lat":"41.4046131","lon":"2.1912600","furniture":"Pal","buses":"07 - N7","distance":"0.42202242442671134"},{"id":"2682","street_name":"Pujades-Marina","city":"BARCELONA","utm_x":"432245,1370","utm_y":"4582889,4530","lat":"41.3928363","lon":"2.1886475","furniture":"Pal","buses":"14 - 41","distance":"0.42518967001646407"},{"id":"1628","street_name":"Ciutat de Granada-Ptge Mas de Roda","city":"BARCELONA","utm_x":"433205,0590","utm_y":"4583321,9900","lat":"41.3968564","lon":"2.1998812","furniture":"Pal","buses":"06 - 36 - N6 - N8","distance":"0.4343215761732547"},{"id":"227","street_name":"Marina-Ausi\u00e0s Marc","city":"BARCELONA","utm_x":"431821,0190","utm_y":"4583429,1590","lat":"41.3976936","lon":"2.1833578","furniture":"Pal","buses":"06 - 10","distance":"0.4411785712964358"},{"id":"247","street_name":"Gran Via-Castillejos","city":"BARCELONA","utm_x":"431944,2418","utm_y":"4583909,3487","lat":"41.4019623","lon":"2.1846169","furniture":"Pal","buses":"07 - 56 - B21 - N2","distance":"0.4417774914660254"},{"id":"38","street_name":"Marina-Ctra de Ribes","city":"BARCELONA","utm_x":"431805,6720","utm_y":"4583420,4990","lat":"41.3977509","lon":"2.1829650","furniture":"Pal","buses":"06","distance":"0.46090081956426343"},{"id":"1073","street_name":"Gran Via-Lepant","city":"BARCELONA","utm_x":"431815,3250","utm_y":"4583735,0470","lat":"41.4004598","lon":"2.1832119","furniture":"Pal","buses":"07 - 56 - B21 - N2","distance":"0.4648145051261065"},{"id":"498","street_name":"Gran Via-Escultors Claper\u00f3s","city":"BARCELONA","utm_x":"432250,4920","utm_y":"4584215,8470","lat":"41.4048270","lon":"2.1883634","furniture":"Marquesina","buses":"56 - B21 - N2","distance":"0.47083885259479646"},{"id":"2889","street_name":"Roc Boronat-Ptge Mas de Roda","city":"BARCELONA","utm_x":"433297,3661","utm_y":"4583438,7999","lat":"41.3979161","lon":"2.2009724","furniture":"Pal","buses":"06 - N6 - N8","distance":"0.47723738856420445"},{"id":"288","street_name":"Pl de les Gl\u00f2ries Catalanes-Encants Vells","city":"BARCELONA","utm_x":"432024,8049","utm_y":"4584107,1727","lat":"41.4040052","lon":"2.1860729","furniture":"Marquesina","buses":"07 - 56 - 92 - B21","distance":"0.48143355044004416"},{"id":"785","street_name":"Gran Via-Padilla","city":"BARCELONA","utm_x":"431790,8159","utm_y":"4583760,9049","lat":"41.4005912","lon":"2.1829280","furniture":"Marquesina","buses":"07 - 56 - B21 - N2","distance":"0.4815418474357096"},{"id":"500","street_name":"Pl de les Gl\u00f2ries Catalanes-Gran Via","city":"BARCELONA","utm_x":"432290,8280","utm_y":"4584256,3290","lat":"41.4051950","lon":"2.1888414","furniture":"Pal","buses":"60","distance":"0.4860989880839535"},{"id":"795","street_name":"Gran Via-Ciutat de Granada","city":"BARCELONA","utm_x":"432386,0460","utm_y":"4584281,9060","lat":"41.4054334","lon":"2.1899776","furniture":"Marquesina","buses":"56 - 60 - 192 - B21 - N2","distance":"0.4870072116645938"},{"id":"1273","street_name":"Llull-Rambla del Poblenou","city":"BARCELONA","utm_x":"433306,3340","utm_y":"4583682,0590","lat":"41.4001078","lon":"2.2010529","furniture":"Marquesina","buses":"26 - 36 - 71 - 141 - N6","distance":"0.4919992549505581"},{"id":"1302","street_name":"Av Meridiana-Sardenya","city":"BARCELONA","utm_x":"432132,5582","utm_y":"4582830,1145","lat":"41.3923420","lon":"2.1870423","furniture":"Marquesina","buses":"14 - 40 - 41 - 42 - 141 - B25 - N11","distance":"0.49281454989842277"},{"id":"833","street_name":"Dr. Trueta - Ciutat de Granada","city":"BARCELONA","utm_x":"433297,4390","utm_y":"4583295,5050","lat":"41.3966255","lon":"2.2009891","furniture":"Pal","buses":"N6 - N8","distance":"0.4939161538355354"},{"id":"1277","street_name":"Roc Boronat-Doctor Trueta","city":"BARCELONA","utm_x":"433332,0550","utm_y":"4583412,2730","lat":"41.3977068","lon":"2.2013586","furniture":"Pal","buses":"36","distance":"0.4985986776409935"},{"id":"318","street_name":"Padilla-Gran Via","city":"BARCELONA","utm_x":"431794,7885","utm_y":"4583837,3761","lat":"41.4013797","lon":"2.1829547","furniture":"Marquesina","buses":"62 - N3 - N7","distance":"0.4991816035014437"},{"id":"2262","street_name":"Av Diagonal-T\u00e0nger","city":"BARCELONA","utm_x":"432839,1982","utm_y":"4584254,8054","lat":"41.4052274","lon":"2.1954015","furniture":"Pal","buses":"07 - 192 - N7","distance":"0.4997209982908166"},{"id":"2774","street_name":"Gran Via-Pl de les Gl\u00f2ries","city":"BARCELONA","utm_x":"432336,6761","utm_y":"4584296,7930","lat":"41.4055369","lon":"2.1893903","furniture":"","buses":"192","distance":"0.5007319696066638"},{"id":"1894","street_name":"Av Diagonal-Rambla del Poblenou","city":"BARCELONA","utm_x":"432784,2932","utm_y":"4584281,8964","lat":"41.4054668","lon":"2.1947417","furniture":"Pal","buses":"07 - N7","distance":"0.5037168713226465"},{"id":"2347","street_name":"Pere IV-Rambla del Poblenou","city":"BARCELONA","utm_x":"433113,3330","utm_y":"4584086,5310","lat":"41.4037757","lon":"2.1986376","furniture":"Pal","buses":"40 - 42 - B25 - N11 - N8","distance":"0.5074872293219241"},{"id":"1632","street_name":"\u00c0laba-Bogatell","city":"BARCELONA","utm_x":"433087,6560","utm_y":"4582913,4280","lat":"41.3931668","lon":"2.1985222","furniture":"Pal","buses":"71","distance":"0.5080502421357895"},{"id":"1630","street_name":"Badajoz-Doctor Trueta","city":"BARCELONA","utm_x":"433249,8946","utm_y":"4583105,9282","lat":"41.3949800","lon":"2.2004326","furniture":"Pal","buses":"26 - 36 - 92 - N6 - N8","distance":"0.509876328002511"},{"id":"794","street_name":"Pere IV-Bilbao","city":"BARCELONA","utm_x":"433104,6750","utm_y":"4584119,5600","lat":"41.4040314","lon":"2.1985923","furniture":"Pal","buses":"40 - 42 - B25 - N11 - N8","distance":"0.518681650169995"},{"id":"304","street_name":"Pg. Taulat - Ciutat de Granada","city":"BARCELONA","utm_x":"433287,2585","utm_y":"4583145,2374","lat":"41.3952712","lon":"2.2008839","furniture":"Pal","buses":"N6 - N8","distance":"0.5215555704914832"},{"id":"1278","street_name":"Marina-Doctor Trueta","city":"BARCELONA","utm_x":"432561,4140","utm_y":"4582672,7390","lat":"41.3909550","lon":"2.1922549","furniture":"Pal","buses":"10 - 14 - 41 - N0","distance":"0.523075230408868"},{"id":"1631","street_name":"Marina-Ramon Turr\u00f3","city":"BARCELONA","utm_x":"432529,1303","utm_y":"4582670,7101","lat":"41.3909340","lon":"2.1918690","furniture":"Marquesina","buses":"10 - N0","distance":"0.5240049015269435"},{"id":"2","street_name":"Av Ic\u00e0ria-Bogatell","city":"BARCELONA","utm_x":"433118,9100","utm_y":"4582908,7000","lat":"41.3931462","lon":"2.1990183","furniture":"Pal","buses":"14 - 41 - 92","distance":"0.5270193006750965"},{"id":"2293","street_name":"Sardenya-Llull","city":"BARCELONA","utm_x":"432338,8360","utm_y":"4582667,6620","lat":"41.3909878","lon":"2.1897207","furniture":"Pal","buses":"14 - 41","distance":"0.5313101583137599"},{"id":"2910","street_name":"Taulat-Ciutat de Granada","city":"BARCELONA","utm_x":"433350,7970","utm_y":"4583254,2030","lat":"41.3962525","lon":"2.2017179","furniture":"Pal","buses":"26","distance":"0.5373694417084971"},{"id":"570","street_name":"Lepant-Pla\u00e7a de Toros Monumental","city":"BARCELONA","utm_x":"431670,0271","utm_y":"4583768,5233","lat":"41.4005721","lon":"2.1817432","furniture":"Pal","buses":"10 - 62 - N3","distance":"0.5401264372434642"},{"id":"34","street_name":"Av Ic\u00e0ria-Frederic Mompou","city":"BARCELONA","utm_x":"433160,8780","utm_y":"4582906,2850","lat":"41.3931086","lon":"2.1993987","furniture":"Pal","buses":"14 - 41 - 92","distance":"0.5429795441172536"},{"id":"1274","street_name":"Pujades-Rambla del Poblenou","city":"BARCELONA","utm_x":"433316,0040","utm_y":"4583907,1520","lat":"41.4021359","lon":"2.2011437","furniture":"Marquesina","buses":"36 - 71 - 141 - 192 - N6","distance":"0.5449803227819332"},{"id":"2749","street_name":"Cementiri de l'Est","city":"BARCELONA","utm_x":"433374,5210","utm_y":"4583026,6900","lat":"41.3948580","lon":"2.2011890","furniture":"Pal","buses":"14","distance":"0.5484395384557904"},{"id":"1764","street_name":"Av Ic\u00e0ria-Arquitecte Sert","city":"BARCELONA","utm_x":"432981,4040","utm_y":"4582744,6360","lat":"41.3916377","lon":"2.1972700","furniture":"Pal","buses":"14 - 41 - 71 - 92","distance":"0.5535176851351539"},{"id":"2897","street_name":"Jaume Vicens i Vives - Av Ic\u00e0ria","city":"BARCELONA","utm_x":"433314,5000","utm_y":"4583040,5000","lat":"41.3943522","lon":"2.2012470","furniture":"Marquesina","buses":"26","distance":"0.5679949035106455"},{"id":"837","street_name":"Av Ic\u00e0ria-Rosa Sensat","city":"BARCELONA","utm_x":"432972,4560","utm_y":"4582694,0540","lat":"41.3911813","lon":"2.1971687","furniture":"Pal","buses":"14 - 41 - 71 - 92","distance":"0.5782788282344937"},{"id":"914","street_name":"Gran Via-Marina","city":"BARCELONA","utm_x":"431598,2450","utm_y":"4583529,2160","lat":"41.3985875","lon":"2.1806385","furniture":"Marquesina","buses":"06 - 07 - 56 - 62 - B21 - N2 - N3","distance":"0.5784327281268471"},{"id":"2202","street_name":"Estaci\u00f3 del Nord","city":"BARCELONA","utm_x":"431718,1000","utm_y":"4583149,3920","lat":"41.3940643","lon":"2.1823029","furniture":"Pal","buses":"54","distance":"0.5804508382472946"},{"id":"682","street_name":"Bisbe Josep Climent-Cementiri de l'Est","city":"BARCELONA","utm_x":"433352,3270","utm_y":"4583051,2440","lat":"41.3944301","lon":"2.2016726","furniture":"Marquesina (x2)","buses":"36 - 41 - N6 - N8","distance":"0.5844974493626397"},{"id":"235","street_name":"Consell de Cent-Cartagena","city":"BARCELONA","utm_x":"431875,2459","utm_y":"4584201,9498","lat":"41.4046701","lon":"2.1838760","furniture":"Pal","buses":"62 - N3","distance":"0.5909753041319952"},{"id":"1298","street_name":"Gran Via-Sardenya","city":"BARCELONA","utm_x":"431569,7280","utm_y":"4583544,0170","lat":"41.3988067","lon":"2.1803893","furniture":"Marquesina","buses":"06 - 07 - 56 - 62 - B21 - N2 - N3","distance":"0.5916628832703411"},{"id":"951","street_name":"Ausi\u00e0s Marc-N\u00e0pols","city":"BARCELONA","utm_x":"431616,9870","utm_y":"4583174,5570","lat":"41.3953948","lon":"2.1809028","furniture":"Pal","buses":"54","distance":"0.6045549833486987"},{"id":"2807","street_name":"Gran Via-Rambla del Poblenou","city":"BARCELONA","utm_x":"432596,7598","utm_y":"4584488,6907","lat":"41.4073136","lon":"2.1924752","furniture":"Pal","buses":"56 - 60 - B21 - N2","distance":"0.6086834456910317"},{"id":"105827","street_name":"Av. Diagonal - Padilla","city":"BARCELONA","utm_x":"431686,9870","utm_y":"4583897,5810","lat":"41.4021602","lon":"2.1810354","furniture":"Pal","buses":"N0 - N7","distance":"0.6119536670626107"},{"id":"107440","street_name":"Av. Diagonal - Padilla","city":"BARCELONA","utm_x":"431635,1700","utm_y":"4583925,5400","lat":"41.4021602","lon":"2.1810354","furniture":"Marquesina","buses":"N0 - N7","distance":"0.6119536670626107"},{"id":"2909","street_name":"Taulat-Rambla del Poblenou","city":"BARCELONA","utm_x":"433521,1880","utm_y":"4583438,3530","lat":"41.3979088","lon":"2.2036944","furniture":"Pal","buses":"26","distance":"0.6179289921108921"},{"id":"796","street_name":"Gran Via-Parc del Clot","city":"BARCELONA","utm_x":"432560,3300","utm_y":"4584511,3310","lat":"41.4075144","lon":"2.1920369","furniture":"Marquesina","buses":"56 - 60 - 192 - B21 - N2","distance":"0.621669613324621"},{"id":"342","street_name":"Carmen Amaya-Cement\u00edri de l'Est","city":"BARCELONA","utm_x":"433413,8220","utm_y":"4583036,9860","lat":"41.3943171","lon":"2.2024212","furniture":"Pal","buses":"41","distance":"0.6223523369604623"},{"id":"882","street_name":"Consell de Cent-Av Meridiana","city":"BARCELONA","utm_x":"432097,5410","utm_y":"4584415,4580","lat":"41.4066119","lon":"2.1865113","furniture":"Pal","buses":"62 - 92 - N3","distance":"0.6227280755003638"},{"id":"915","street_name":"Av Ic\u00e0ria-Joan Mir\u00f3","city":"BARCELONA","utm_x":"432792,3390","utm_y":"4582531,4750","lat":"41.3897020","lon":"2.1950325","furniture":"Pal","buses":"14 - 41 - 71 - 92","distance":"0.6317450683792131"},{"id":"61","street_name":"Independ\u00e8ncia-Consell de Cent","city":"BARCELONA","utm_x":"432008,2400","utm_y":"4584388,1560","lat":"41.4063585","lon":"2.1854460","furniture":"Pal","buses":"92","distance":"0.6338941875464007"},{"id":"2740","street_name":"Bilbao-Pere IV","city":"BARCELONA","utm_x":"433230,1770","utm_y":"4584251,0580","lat":"41.4052587","lon":"2.2002310","furniture":"","buses":"192","distance":"0.6386094834467106"},{"id":"1893","street_name":"Av Diagonal-Parc del Poblenou","city":"BARCELONA","utm_x":"433086,7820","utm_y":"4584381,3922","lat":"41.4063882","lon":"2.1983492","furniture":"Pal","buses":"07 - N7","distance":"0.6409959302829664"},{"id":"2751","street_name":"Bilbao-Av Diagonal","city":"BARCELONA","utm_x":"433193,5934","utm_y":"4584293,7387","lat":"41.4056687","lon":"2.1996858","furniture":"Pal","buses":"40 - 42 - B25 - N11 - N8","distance":"0.6411808091404867"},{"id":"1226","street_name":"Pg Pujades-N\u00e0pols","city":"BARCELONA","utm_x":"431987,7160","utm_y":"4582627,9290","lat":"41.3905030","lon":"2.1853986","furniture":"Pal","buses":"14 - 41","distance":"0.6455304285586481"},{"id":"827","street_name":"Llull-Bilbao","city":"BARCELONA","utm_x":"433513,2630","utm_y":"4583887,2200","lat":"41.4019728","lon":"2.2035055","furniture":"Marquesina","buses":"26 - 36 - 71 - 141 - N6","distance":"0.6519453323254857"},{"id":"322","street_name":"Marina-Pla\u00e7a de Toros Monumental","city":"BARCELONA","utm_x":"431506,5961","utm_y":"4583748,4010","lat":"41.4005894","lon":"2.1795169","furniture":"Pal","buses":"10 - N9","distance":"0.6524183953135138"},{"id":"104308","street_name":"Sardenya - Gran Via","city":"BARCELONA","utm_x":"431478,0000","utm_y":"4583551,0000","lat":"41.3987734","lon":"2.1791978","furniture":"Marquesina","buses":"N9","distance":"0.6533161376069446"},{"id":"698","street_name":"Av Ic\u00e0ria-Marina","city":"BARCELONA","utm_x":"432799,0980","utm_y":"4582496,8360","lat":"41.3893907","lon":"2.1951172","furniture":"Pal","buses":"14 - 41 - 71 - 92","distance":"0.6536485405978011"},{"id":"1231","street_name":"Almog\u00e0vers-Roger de Flor","city":"BARCELONA","utm_x":"431773,9064","utm_y":"4582776,4313","lat":"41.3918224","lon":"2.1828246","furniture":"Marquesina","buses":"40 - 42 - 141 - B25 - N11","distance":"0.6560224506858007"},{"id":"2772","street_name":"Bilbao-Pujades","city":"BARCELONA","utm_x":"433422,6380","utm_y":"4584059,6720","lat":"41.4035766","lon":"2.2025193","furniture":"","buses":"192","distance":"0.6563494965454041"},{"id":"40","street_name":"N\u00e0pols-Ausi\u00e0s Marc","city":"BARCELONA","utm_x":"431508,7620","utm_y":"4583155,9330","lat":"41.3951947","lon":"2.1796409","furniture":"Pal","buses":"54","distance":"0.6706646594516111"},{"id":"33","street_name":"Salvador Espriu-Jaume Vicens Vives","city":"BARCELONA","utm_x":"433402,4100","utm_y":"4582872,1570","lat":"41.3928213","lon":"2.2022913","furniture":"Marquesina","buses":"36 - N6 - N8","distance":"0.6712931294554277"},{"id":"1896","street_name":"Av Diagonal-Pere IV","city":"BARCELONA","utm_x":"433190,2513","utm_y":"4584368,8204","lat":"41.4062835","lon":"2.1995884","furniture":"Pal","buses":"07 - N7","distance":"0.6714045993398114"},{"id":"1763","street_name":"Salvador Espriu-Arquitecte Sert","city":"BARCELONA","utm_x":"433124,5795","utm_y":"4582600,9484","lat":"41.3903799","lon":"2.1990264","furniture":"Marquesina","buses":"36 - N6 - N8","distance":"0.6756253131550274"},{"id":"2986","street_name":"Pere IV-Av Diagonal","city":"BARCELONA","utm_x":"433257,5000","utm_y":"4584336,5000","lat":"41.4059980","lon":"2.2003965","furniture":"Marquesina","buses":"40 - 42 - B25 - N11 - N8","distance":"0.6823286643545546"},{"id":"236","street_name":"Arag\u00f3-Enamorats","city":"BARCELONA","utm_x":"431805,0900","utm_y":"4584340,4590","lat":"41.4059116","lon":"2.1830212","furniture":"Pal","buses":"62 - N3","distance":"0.6840040164969645"},{"id":"123","street_name":"Arc de Triomf","city":"BARCELONA","utm_x":"431431,4715","utm_y":"4582718,6765","lat":"41.3924565","lon":"2.1813072","furniture":"Marquesina","buses":"19 - 39 - 40 - 41 - 42 - 55 - 141 - B25 - N11 - N4","distance":"0.6863636143623009"},{"id":"1616","street_name":"Pg Pujades-Parc de la Ciutadella","city":"BARCELONA","utm_x":"431957,9330","utm_y":"4582568,7030","lat":"41.3899526","lon":"2.1849888","furniture":"Marquesina","buses":"14 - 40 - 41 - 42 - 141 - B25 - N11","distance":"0.6890691574599213"},{"id":"661","street_name":"Arag\u00f3-Independ\u00e8ncia","city":"BARCELONA","utm_x":"431961,1345","utm_y":"4584489,2837","lat":"41.4072653","lon":"2.1848711","furniture":"Marquesina","buses":"62 - B24 - N3","distance":"0.7029403090848722"},{"id":"284","street_name":"Lepant-Av Diagonal","city":"BARCELONA","utm_x":"431500,1664","utm_y":"4583945,4848","lat":"41.4024622","lon":"2.1792941999999584","furniture":"Marquesina","buses":"10 - 62 - N0 - N3 - N7","distance":"0.7030205673173112"},{"id":"2295","street_name":"Parc de Carles I","city":"BARCELONA","utm_x":"432718,7780","utm_y":"4582398,3160","lat":"41.3884709","lon":"2.1939582","furniture":"Pal","buses":"14 - 41","distance":"0.703130367415843"},{"id":"301","street_name":"Pl dels Campions","city":"BARCELONA","utm_x":"433272,6189","utm_y":"4582627,8438","lat":"41.3904001","lon":"2.2001584","furniture":"Marquesina","buses":"36 - N6 - N8","distance":"0.7087307692095144"},{"id":"143","street_name":"Pujades-Lope de Vega","city":"BARCELONA","utm_x":"433508,6200","utm_y":"4584097,6520","lat":"41.4038800","lon":"2.2034754","furniture":"Marquesina","buses":"36 - 71 - 141 - N6","distance":"0.7095034177013386"},{"id":"662","street_name":"Marina-Pl dels Voluntaris","city":"BARCELONA","utm_x":"432842,0470","utm_y":"4582384,5120","lat":"41.3883826","lon":"2.1956433","furniture":"Marquesina","buses":"10 - 71 - 92 - N0","distance":"0.7280626677070724"},{"id":"1022","street_name":"Pg Calvell-Rambla del Poblenou","city":"BARCELONA","utm_x":"433704,8660","utm_y":"4583348,3020","lat":"41.3970688","lon":"2.2057777","furniture":"Pal","buses":"41","distance":"0.7313560481295708"},{"id":"102854","street_name":"Marina - Av. Diagonal","city":"BARCELONA","utm_x":"431391,6041","utm_y":"4583882,5156","lat":"41.4017519","lon":"2.1781267","furniture":"Marquesina","buses":"N0 - N7 - N9","distance":"0.7429606992522033"},{"id":"385","street_name":"Gran Via-Bilbao","city":"BARCELONA","utm_x":"432789,2884","utm_y":"4584674,5194","lat":"41.4090872","lon":"2.1947946","furniture":"Marquesina","buses":"56 - 60 - B21 - N2","distance":"0.7465301243583908"},{"id":"1786","street_name":"Ramon Trias Fargas-Av Ic\u00e0ria","city":"BARCELONA","utm_x":"432700,3990","utm_y":"4582318,1590","lat":"41.3877731","lon":"2.1939566","furniture":"Pal","buses":"10 - 71 - 92","distance":"0.7507537965000637"},{"id":"130","street_name":"Pg de Llu\u00eds Companys-Parc de la Ciutadella","city":"BARCELONA","utm_x":"431833,1470","utm_y":"4582522,8350","lat":"41.3895433","lon":"2.1835618","furniture":"Pal","buses":"39 - 41 - 51","distance":"0.7528417572272696"},{"id":"302","street_name":"Pg. Mar\u00edtim de la Nova Ic\u00e0ria - Pl. Nova Ic\u00e0ria","city":"BARCELONA","utm_x":"433471,4886","utm_y":"4582743,9757","lat":"41.3916725","lon":"2.2031316","furniture":"","buses":"N6 - N8","distance":"0.7541112181410093"},{"id":"100186","street_name":"Ausi\u00e0s Marc - Roger de Flor","city":"BARCELONA","utm_x":"431431,3940","utm_y":"4582991,6880","lat":"41.3937320","lon":"2.1787037","furniture":"Pal","buses":"N9","distance":"0.7549821694732802"},{"id":"62","street_name":"Dos de Maig-Val\u00e8ncia","city":"BARCELONA","utm_x":"431772,3770","utm_y":"4584418,1880","lat":"41.4065187","lon":"2.1818286","furniture":"Pal","buses":"92","distance":"0.7566501424812813"},{"id":"308","street_name":"Val\u00e8ncia-Dos de Maig","city":"BARCELONA","utm_x":"431706,0490","utm_y":"4584408,8010","lat":"41.4065187","lon":"2.1818286","furniture":"Marquesina","buses":"33 - 34 - 43 - 44 - 50 - 51 - B20 - B24 - N9","distance":"0.7566501424812813"},{"id":"2742","street_name":"Av Meridiana-Clot","city":"BARCELONA","utm_x":"432159,1440","utm_y":"4584388,6380","lat":"41.4089890","lon":"2.1870830","furniture":"","buses":"192","distance":"0.7635955241371446"},{"id":"341","street_name":"Arag\u00f3-Metro Clot","city":"BARCELONA","utm_x":"432219,2930","utm_y":"4584706,0470","lat":"41.4092212","lon":"2.1879117","furniture":"","buses":"192","distance":"0.7664200335475402"},{"id":"700","street_name":"Pg Calvell-Parc del Poblenou","city":"BARCELONA","utm_x":"433760,9490","utm_y":"4583384,1060","lat":"41.3974619","lon":"2.2065235","furniture":"Pal","buses":"41","distance":"0.7665999071138161"},{"id":"2657","street_name":"Parc del Port Ol\u00edmpic","city":"BARCELONA","utm_x":"433101,5831","utm_y":"4582418,0672","lat":"41.3887064","lon":"2.1987435","furniture":"Marquesina","buses":"36 - N6 - N8","distance":"0.7675248392715389"},{"id":"1319","street_name":"Gran Via-N\u00e0pols","city":"BARCELONA","utm_x":"431315,5900","utm_y":"4583256,6850","lat":"41.3961088","lon":"2.1772885","furniture":"Marquesina","buses":"06 - 07 - 56 - 62 - B21 - N2 - N3 - N9","distance":"0.7702487303070619"},{"id":"244","street_name":"Val\u00e8ncia-Padilla","city":"BARCELONA","utm_x":"431500,6390","utm_y":"4584207,3790","lat":"41.4046871","lon":"2.1793942","furniture":"Marquesina","buses":"33 - 34 - 43 - 44 - 50 - 51 - B20 - B24 - N9","distance":"0.7713212793914499"},{"id":"1230","street_name":"Gran Via-Roger de Flor","city":"BARCELONA","utm_x":"431306,9360","utm_y":"4583286,9710","lat":"41.3963987","lon":"2.1771514","furniture":"Pal","buses":"06 - 07 - 56 - 62 - B21 - N2 - N3","distance":"0.7731437208275398"},{"id":"576","street_name":"Roger de Flor-Gran Via","city":"BARCELONA","utm_x":"431320,1550","utm_y":"4583170,6851","lat":"41.3952819","lon":"2.1774681","furniture":"Pal","buses":"54","distance":"0.7756679848903143"},{"id":"100143","street_name":"Arag\u00f3 - Av. Meridiana","city":"BARCELONA","utm_x":"432173,8311","utm_y":"4584708,0750","lat":"41.4092496","lon":"2.1873866","furniture":"Marquesina","buses":"B24","distance":"0.7758928322385895"},{"id":"414","street_name":"Pl. Voluntaris Ol\u00edmpics","city":"BARCELONA","utm_x":"432809,0943","utm_y":"4582293,2013","lat":"41.3875574","lon":"2.1952593","furniture":"Marquesina","buses":"N0 - N6 - N8","distance":"0.778228785920604"},{"id":"39","street_name":"Pg de Sant Joan-Al\u00ed-Bei","city":"BARCELONA","utm_x":"431451,9218","utm_y":"4582853,3134","lat":"41.3925383","lon":"2.1789688","furniture":"Marquesina","buses":"19 - 51 - 55 - N4","distance":"0.7828729790093413"},{"id":"716","street_name":"Gran Via-Monturiol","city":"BARCELONA","utm_x":"432798,8889","utm_y":"4584742,5532","lat":"41.4096465","lon":"2.1949018","furniture":"Marquesina","buses":"56 - 60 - B21 - N2","distance":"0.7854868514784887"},{"id":"303","street_name":"Pg de Calvell-Ferrocarril","city":"BARCELONA","utm_x":"433804,4950","utm_y":"4583469,6200","lat":"41.3982356","lon":"2.2070350","furniture":"Pal","buses":"41","distance":"0.7898642412384157"},{"id":"1489","street_name":"Av Meridiana-Arag\u00f3","city":"BARCELONA","utm_x":"432155,7740","utm_y":"4584739,6660","lat":"41.4095368","lon":"2.1871715","furniture":"Pal","buses":"62 - N3","distance":"0.7981536220618987"},{"id":"2699","street_name":"Espronceda-Pere IV","city":"BARCELONA","utm_x":"433441,8090","utm_y":"4584408,1090","lat":"41.4066367","lon":"2.2028746","furniture":"Marquesina","buses":"71","distance":"0.8025303138547715"},{"id":"1127","street_name":"Pg de Llu\u00eds Companys-Arc de Triomf","city":"BARCELONA","utm_x":"431555,9940","utm_y":"4582653,4882","lat":"41.3907318","lon":"2.1802850","furniture":"Marquesina","buses":"39 - 40 - 41 - 42 - 51 - 141 - B25 - N11","distance":"0.8034534545885024"},{"id":"105906","street_name":"Pg. Sant Joan - Auxi\u00e0s Marc","city":"BARCELONA","utm_x":"431423,4464","utm_y":"4582842,0775","lat":"41.3923838","lon":"2.1786256","furniture":"Marquesina","buses":"B25 - N11 - N4","distance":"0.8036159552327309"},{"id":"2908","street_name":"Taulat-Bilbao","city":"BARCELONA","utm_x":"433749,7890","utm_y":"4583677,5360","lat":"41.4006832","lon":"2.2071046","furniture":"Pal","buses":"26","distance":"0.8071953185492281"},{"id":"567","street_name":"Bilbao-Andrade","city":"BARCELONA","utm_x":"432704,0640","utm_y":"4584798,7170","lat":"41.4101149","lon":"2.1937243","furniture":"","buses":"192","distance":"0.8074036011919602"},{"id":"2700","street_name":"Espronceda-Pallars","city":"BARCELONA","utm_x":"433567,7510","utm_y":"4584281,1090","lat":"41.4055093","lon":"2.2043731","furniture":"Marquesina","buses":"71","distance":"0.8111255439559588"},{"id":"784","street_name":"Val\u00e8ncia-Marina","city":"BARCELONA","utm_x":"431334,0546","utm_y":"4584044,1178","lat":"41.4032025","lon":"2.1774200","furniture":"Marquesina","buses":"19 - 33 - 34 - 43 - 44 - 50 - 51 - B20 - B24 - N1 - N7 - N9","distance":"0.8124340679140312"},{"id":"2134","street_name":"Llull-Espronceda","city":"BARCELONA","utm_x":"433711,7670","utm_y":"4584083,8880","lat":"41.4037605","lon":"2.2058585","furniture":"Marquesina","buses":"26 - 36 - 71 - 141 - N6","distance":"0.8136745417528028"},{"id":"1496","street_name":"Dos de Maig-Mallorca","city":"BARCELONA","utm_x":"431681,7210","utm_y":"4584511,0270","lat":"41.4074374","lon":"2.1815259999999626","furniture":"Pal","buses":"35","distance":"0.8143498523577161"},{"id":"1128","street_name":"Pg de Llu\u00eds Companys-Jutjats","city":"BARCELONA","utm_x":"431757,6684","utm_y":"4582445,8118","lat":"41.3888801","lon":"2.1827304","furniture":"Marquesina","buses":"40 - 41 - 42 - 141 - B25 - N11","distance":"0.8150757552072858"},{"id":"2335","street_name":"Val\u00e8ncia-Rogent","city":"BARCELONA","utm_x":"432027,2457","utm_y":"4584724,5282","lat":"41.4093896","lon":"2.1856356","furniture":"Pal","buses":"33 - 34 - 35 - 43 - 44 - B20 - B24 - N9","distance":"0.8161974827491457"},{"id":"2923","street_name":"Placeta del Comer\u00e7","city":"BARCELONA","utm_x":"431598,0260","utm_y":"4582605,3290","lat":"41.3898306","lon":"2.1809543","furniture":"Pal","buses":"120","distance":"0.8223199120024769"},{"id":"2698","street_name":"Espronceda-Bolivia","city":"BARCELONA","utm_x":"433247,5340","utm_y":"4584621,3050","lat":"41.4089310","lon":"2.1998591","furniture":"Marquesina","buses":"40 - 42 - 71 - N8","distance":"0.8318822247196708"},{"id":"1229","street_name":"Pl Tetuan-Gran Via","city":"BARCELONA","utm_x":"431238,3080","utm_y":"4583153,3500","lat":"41.3951348","lon":"2.1763450","furniture":"Marquesina (x2)","buses":"54 - B21 - N2 - N3 - N9","distance":"0.8343650670740508"},{"id":"382","street_name":"Pujades-Espronceda","city":"BARCELONA","utm_x":"433663,1370","utm_y":"4584256,4020","lat":"41.4052739","lon":"2.2052730","furniture":"Pal","buses":"36 - 141 - N6","distance":"0.8399008021542067"},{"id":"234","street_name":"Mallorca-Dos de Maig","city":"BARCELONA","utm_x":"431590,2870","utm_y":"4584500,4890","lat":"41.4073530","lon":"2.1804501","furniture":"Marquesina","buses":"33 - 34 - 43 - 44 - 50 - 51 - B20 - B24 - N9","distance":"0.8476374197912931"},{"id":"1498","street_name":"Lepant-Mallorca","city":"BARCELONA","utm_x":"431297,1967","utm_y":"4584153,1396","lat":"41.4041145","lon":"2.1771007","furniture":"Marquesina","buses":"10 - N0","distance":"0.8542436118158976"},{"id":"1130","street_name":"Pg Picasso-Jutjats","city":"BARCELONA","utm_x":"431701,6460","utm_y":"4582396,1560","lat":"41.3883893","lon":"2.1821407","furniture":"Pal","buses":"39 - 51","distance":"0.8604226012527546"},{"id":"413","street_name":"Av Litoral-Ramon Trias Fargas","city":"BARCELONA","utm_x":"432765,2500","utm_y":"4582143,8800","lat":"41.3862671","lon":"2.1948275","furniture":"Marquesina","buses":"36 - N0 - N6 - N8","distance":"0.8608597102681028"},{"id":"1072","street_name":"Mercat de la Sagrada Fam\u00edlia","city":"BARCELONA","utm_x":"431396,2344","utm_y":"4584311,4623","lat":"41.4056156","lon":"2.1781334","furniture":"Marquesina","buses":"33 - 34 - 43 - 44 - 50 - 51 - B20 - B24 - N9","distance":"0.8613978639887558"},{"id":"1129","street_name":"Parc de la Ciutadella-Pg Picasso","city":"BARCELONA","utm_x":"431791,7070","utm_y":"4582334,7850","lat":"41.3878462","lon":"2.1830873","furniture":"Pal","buses":"14 - 39 - 51","distance":"0.8646038199046109"},{"id":"1281","street_name":"Ramon Trias Fargas-Ronda Litoral","city":"BARCELONA","utm_x":"432854,5000","utm_y":"4582151,5000","lat":"41.3863153","lon":"2.1958862","furniture":"","buses":"45","distance":"0.8693047635044716"},{"id":"2924","street_name":"Comer\u00e7-Pg Pujades","city":"BARCELONA","utm_x":"431648,2970","utm_y":"4582416,4170","lat":"41.3885666","lon":"2.1814129","furniture":"Pal","buses":"120","distance":"0.8732249652105124"},{"id":"229","street_name":"Pg de Sant Joan-Pl Tetuan","city":"BARCELONA","utm_x":"431198,8608","utm_y":"4583055,4440","lat":"41.3942863","lon":"2.1759152","furniture":"Marquesina","buses":"19 - 51 - 55 - N4","distance":"0.8736116014559318"},{"id":"2948","street_name":"Espronceda-Gran Via","city":"BARCELONA","utm_x":"433043,2760","utm_y":"4584827,7700","lat":"41.4104049","lon":"2.1977793","furniture":"Pal","buses":"40 - 42 - 71 - N8","distance":"0.8777786038607873"},{"id":"1286","street_name":"Ramon Trias Fargas-Torrevieja","city":"BARCELONA","utm_x":"432854,8737","utm_y":"4582151,1213","lat":"41.3862013","lon":"2.1960322","furniture":"Marquesina","buses":"36 - N8","distance":"0.8788044202380735"},{"id":"317","street_name":"Pl Tetuan-Pg de Sant Joan","city":"BARCELONA","utm_x":"431148,5607","utm_y":"4583189,7419","lat":"41.3954916","lon":"2.1752983","furniture":"Marquesina","buses":"06 - 19 - 50 - 51 - 55 - N1 - N4","distance":"0.8803900665560996"},{"id":"338","street_name":"Val\u00e8ncia-Av Meridiana","city":"BARCELONA","utm_x":"432195,8700","utm_y":"4584891,2600","lat":"41.4109359","lon":"2.1876764","furniture":"Pal","buses":"34 - 35 - B20 - N9","distance":"0.8841396655777626"},{"id":"1163","street_name":"Pg Picasso-Princesa","city":"BARCELONA","utm_x":"431827,3080","utm_y":"4582274,9180","lat":"41.3873100","lon":"2.1835198","furniture":"Pal","buses":"14 - 39 - 51","distance":"0.8853261688138298"},{"id":"1142","street_name":"Independ\u00e8ncia-Mallorca","city":"BARCELONA","utm_x":"431717,7860","utm_y":"4584686,3170","lat":"41.4090192","lon":"2.1819377","furniture":"Pal","buses":"35 - 50 - 51 - 92","distance":"0.8874298202552998"},{"id":"1191","street_name":"Bilbao-Concili de Trento","city":"BARCELONA","utm_x":"432566,1120","utm_y":"4584940,1650","lat":"41.4113773","lon":"2.1920582","furniture":"","buses":"192","distance":"0.8885366742975229"},{"id":"1685","street_name":"Av. Marqu\u00e8s Argentera (Passat Pg. Picasso)","city":"BARCELONA","utm_x":"431987,5000","utm_y":"4582070,5000","lat":"41.3870326","lon":"2.1840362","furniture":"","buses":"100","distance":"0.8897180177605257"},{"id":"1285","street_name":"Ramon Trias Fargas-Pg Mar\u00edtim","city":"BARCELONA","utm_x":"432891,5000","utm_y":"4582111,5000","lat":"41.3860034","lon":"2.1962933","furniture":"","buses":"59","distance":"0.8954756254240401"},{"id":"191","street_name":"Bac de Roda-Crist\u00f2bal de Moura","city":"BARCELONA","utm_x":"433502,6160","utm_y":"4584578,0800","lat":"41.4081942","lon":"2.2033022","furniture":"Pal","buses":"71","distance":"0.8956954788033531"},{"id":"1140","street_name":"Padilla - Mallorca","city":"BARCELONA","utm_x":"431321,6625","utm_y":"4584321,1050","lat":"41.4056863","lon":"2.1773849","furniture":"Pal","buses":"19 - N1","distance":"0.8962516722449041"},{"id":"1788","street_name":"Trelawny-Ronda Litoral","city":"BARCELONA","utm_x":"432752,5000","utm_y":"4582090,5000","lat":"41.3857139","lon":"2.1946319","furniture":"Marquesina","buses":"57 - 157","distance":"0.8967510902044572"},{"id":"337","street_name":"Val\u00e8ncia-Muntanya","city":"BARCELONA","utm_x":"432242,1880","utm_y":"4584929,4520","lat":"41.4112535","lon":"2.1881840","furniture":"Marquesina","buses":"33 - 43 - 44 - B24","distance":"0.899604389151364"},{"id":"1224","street_name":"Mallorca-Rogent","city":"BARCELONA","utm_x":"431932,6570","utm_y":"4584834,4360","lat":"41.4103715","lon":"2.1844916","furniture":"Marquesina","buses":"33 - 34 - 35 - 43 - 44 - B20 - N9","distance":"0.9022602696056543"},{"id":"2983","street_name":"Bac de Roda-Pere IV","city":"BARCELONA","utm_x":"433395,0581","utm_y":"4584684,1012","lat":"41.4091974","lon":"2.2019813","furniture":"Marquesina","buses":"40 - 42 - N8","distance":"0.9070916674200977"},{"id":"100185","street_name":"Ausias Marc - Bailen","city":"BARCELONA","utm_x":"431249,6520","utm_y":"4582807,4440","lat":"41.3920570","lon":"2.1765509","furniture":"Pal","buses":"N9","distance":"0.9076605088447569"},{"id":"2306","street_name":"Ramon Trias Fargas-Barceloneta","city":"BARCELONA","utm_x":"432907,9750","utm_y":"4582100,4250","lat":"41.3858524","lon":"2.1964908","furniture":"Pal","buses":"10","distance":"0.9082403128300742"},{"id":"780","street_name":"Trafalgar - Girona","city":"BARCELONA","utm_x":"431360,9859","utm_y":"4582605,2899","lat":"41.3903028","lon":"2.1779792","furniture":"Pal","buses":"19 - 39 - 40 - 41 - 42 - 55 - 141 - N4","distance":"0.9139089135533054"},{"id":"2922","street_name":"Pl de St Pere","city":"BARCELONA","utm_x":"431493,7800","utm_y":"4582461,9250","lat":"41.3890286","lon":"2.1794688","furniture":"Pal","buses":"120","distance":"0.9155784518635152"},{"id":"464","street_name":"Gran Via-Bac de Roda","city":"BARCELONA","utm_x":"433015,8289","utm_y":"4584902,6925","lat":"41.4110774","lon":"2.1974426","furniture":"Marquesina","buses":"56 - 60 - B21 - N2","distance":"0.9156739337579517"},{"id":"1131","street_name":"Bac de Roda-Llull","city":"BARCELONA","utm_x":"433787,7400","utm_y":"4584288,5260","lat":"41.4056099","lon":"2.2067449","furniture":"Marquesina","buses":"71","distance":"0.9165068329139519"},{"id":"1897","street_name":"Av Diagonal-Bac de Roda","city":"BARCELONA","utm_x":"433633,1700","utm_y":"4584514,6180","lat":"41.4076334","lon":"2.2048710","furniture":"Pal","buses":"07 - N7","distance":"0.9249372892045347"},{"id":"104310","street_name":"Sardenya - Mallorca","city":"BARCELONA","utm_x":"431102,0150","utm_y":"4583953,2881","lat":"41.4023645","lon":"2.1746546","furniture":"Marquesina","buses":"N9","distance":"0.9273992627243298"},{"id":"1494","street_name":"Av Meridiana-Pl del Doctor Serrat","city":"BARCELONA","utm_x":"432123,0630","utm_y":"4584948,6820","lat":"41.4114166","lon":"2.1867567","furniture":"Marquesina","buses":"62 - N3","distance":"0.9286703077372436"},{"id":"1892","street_name":"Av Diagonal-Fluvi\u00e0","city":"BARCELONA","utm_x":"433609,8750","utm_y":"4584550,0200","lat":"41.4079504","lon":"2.2045885","furniture":"Pal","buses":"07 - N7","distance":"0.9294901180748584"},{"id":"103116","street_name":"Pere IV  - Pge. Monyarc","city":"BARCELONA","utm_x":"433448,4210","utm_y":"4584695,8930","lat":"41.4092508","lon":"2.2026408","furniture":"Marquesina","buses":"B25 - N11","distance":"0.9303270930531413"},{"id":"1318","street_name":"Val\u00e8ncia-Av Diagonal","city":"BARCELONA","utm_x":"431032,9163","utm_y":"4583749,5519","lat":"41.4007301","lon":"2.1740912","furniture":"Marquesina","buses":"19 - 33 - 34 - 43 - 44 - 50 - 51 - B20 - B24 - N1 - N7","distance":"0.9303572188625447"},{"id":"109047","street_name":"Marroc - Pere IV","city":"BARCELONA","utm_x":"433403,2400","utm_y":"4584739,0500","lat":"41.4096358","lon":"2.2020956","furniture":"Marquesina","buses":"B25 - N11","distance":"0.9352609090857724"},{"id":"2743","street_name":"Clot-Arag\u00f3","city":"BARCELONA","utm_x":"432399,3870","utm_y":"4585002,4720","lat":"41.4120156","lon":"2.1899619","furniture":"","buses":"192","distance":"0.937382682935418"},{"id":"1297","street_name":"Temple Expiatori de La Sagrada Fam\u00edlia","city":"BARCELONA","utm_x":"431102,8436","utm_y":"4584016,7196","lat":"41.4029359","lon":"2.1746573","furniture":"Marquesina","buses":"19 - 33 - 34 - 43 - 44 - 50 - 51 - B20 - B24 - N1 - N7","distance":"0.9393370979992014"},{"id":"578","street_name":"Bac de Roda-Per\u00fa","city":"BARCELONA","utm_x":"433221,4874","utm_y":"4584861,9272","lat":"41.4107530","lon":"2.1999182","furniture":"Marquesina","buses":"40 - 42 - 71 - N8","distance":"0.9442252579985896"},{"id":"2658","street_name":"Pg Mar\u00edtim-Ramon Trias Fargas","city":"BARCELONA","utm_x":"432879,7960","utm_y":"4582031,0230","lat":"41.3851799","lon":"2.1962166","furniture":"Pal","buses":"71","distance":"0.9495616836247427"},{"id":"315","street_name":"Pg de Sant Joan-Consell de Cent","city":"BARCELONA","utm_x":"431017,9770","utm_y":"4583264,9970","lat":"41.3961582","lon":"2.1737279","furniture":"Marquesina","buses":"06 - 19 - 50 - 51 - 55 - N1 - N4","distance":"0.9506686469662714"},{"id":"828","street_name":"Rambla de Guip\u00fascoa-Bilbao","city":"BARCELONA","utm_x":"432565,0420","utm_y":"4585052,3370","lat":"41.4123932","lon":"2.1920774","furniture":"Marquesina","buses":"33 - 43 - 44","distance":"0.958732225461383"},{"id":"1143","street_name":"Dos de Maig-Rossell\u00f3","city":"BARCELONA","utm_x":"431515,9780","utm_y":"4584680,7910","lat":"41.4089522","lon":"2.1795241","furniture":"Pal","buses":"35 - 50 - 51 - 92","distance":"0.9614159700086894"},{"id":"383","street_name":"Gran Via-Espronceda","city":"BARCELONA","utm_x":"433033,5138","utm_y":"4584972,4364","lat":"41.4117190","lon":"2.1976765","furniture":"Marquesina","buses":"56 - 60 - B21 - N2","distance":"0.9615548948695892"},{"id":"125","street_name":"Gran Via-Girona","city":"BARCELONA","utm_x":"431056,8329","utm_y":"4583000,4976","lat":"41.3937792","lon":"2.1742228","furniture":"Marquesina","buses":"07 - 50 - 54 - 56 - 62 - B21 - N1 - N11 - N2 - N3 - N9","distance":"0.9680030489221805"},{"id":"101576","street_name":"Casp  - Girona","city":"BARCELONA","utm_x":"431113,7230","utm_y":"4582855,1130","lat":"41.3924747","lon":"2.1749198","furniture":"Marquesina","buses":"B25","distance":"0.9693696031639425"},{"id":"2659","street_name":"Llull-Bac de Roda","city":"BARCELONA","utm_x":"433884,2767","utm_y":"4584256,3419","lat":"41.4054282","lon":"2.2080954","furniture":"Pal","buses":"26 - 36 - 141 - N6","distance":"0.9701329806916236"},{"id":"2925","street_name":"Pl Pons Clerch","city":"BARCELONA","utm_x":"431691,1580","utm_y":"4582197,8720","lat":"41.3865378","lon":"2.1818912","furniture":"Pal","buses":"120","distance":"0.974089830379659"},{"id":"2907","street_name":"Pg del Taulat-Bac de Roda","city":"BARCELONA","utm_x":"434024,9550","utm_y":"4583969,6360","lat":"41.4027853","lon":"2.2097144","furniture":"Marquesina","buses":"26","distance":"0.9741367980615657"},{"id":"2744","street_name":"Muntanya-Mallorca","city":"BARCELONA","utm_x":"432024,7360","utm_y":"4584995,0630","lat":"41.4118235","lon":"2.1853957","furniture":"","buses":"192","distance":"0.9773211041200968"},{"id":"2947","street_name":"Espronceda-Concili de Trento","city":"BARCELONA","utm_x":"432816,7920","utm_y":"4585058,4850","lat":"41.4124639","lon":"2.1950441","furniture":"Marquesina","buses":"71","distance":"0.9780724591288387"},{"id":"274","street_name":"Pg Mar\u00edtim-Trelawny","city":"BARCELONA","utm_x":"432825,5420","utm_y":"4581963,2880","lat":"41.3845874","lon":"2.1954927","furniture":"Marquesina","buses":"36 - 45 - 57 - 59 - 157 - N8","distance":"0.9813345381056989"},{"id":"1108","street_name":"Av Marqu\u00e8s de l'Argentera-Pg Picasso","city":"BARCELONA","utm_x":"431967,3660","utm_y":"4582031,9360","lat":"41.3851335","lon":"2.1852222","furniture":"Pal","buses":"14 - 39 - 51","distance":"0.9855799420999669"},{"id":"503","street_name":"Gran Via-Pl Tetu\u00e1n","city":"BARCELONA","utm_x":"431019,5160","utm_y":"4583012,4150","lat":"41.3938834","lon":"2.1737751","furniture":"Pal","buses":"07 - 50 - 54 - 56 - 62 - B21 - N1 - N2 - N3","distance":"0.987511452306039"},{"id":"148","street_name":"Ronda Sant Pere-Girona","city":"BARCELONA","utm_x":"431195,3830","utm_y":"4582615,2650","lat":"41.3902906","lon":"2.1759958","furniture":"Marquesina","buses":"19 - 39 - 40 - 41 - 42 - 55 - 141 - N4","distance":"0.997005742952613"},{"id":"871","street_name":"Mallorca-Av Meridiana","city":"BARCELONA","utm_x":"432177,9850","utm_y":"4585075,6000","lat":"41.4125654","lon":"2.1873925","furniture":"Pal","buses":"33 - 34 - 35 - 43 - 44 - 192 - B20 - N9","distance":"0.9970237456563369"},{"id":"63","street_name":"Pg de Sant Joan-Arag\u00f3","city":"BARCELONA","utm_x":"430911,5720","utm_y":"4583405,5714","lat":"41.3973544","lon":"2.1725968","furniture":"Pal","buses":"06 - 19 - 50 - 51 - 55 - N1 - N4","distance":"0.9984370976539599"}]